rosbagTimestamp,x,y,z,w,x,y,z,x,y,z
1471539672636547139,-0.189496307873,-0.619380724222,0.604203536585,0.464108558575,-0.216675099409,-0.221824947723,-0.479889568762,3.19474196618,-8.28194923164,0.921332730214
1471539672638043330,-0.189496307873,-0.619380724222,0.604203536585,0.464108558575,-0.216675099409,-0.221824947723,-0.479889568762,3.19474196618,-8.28194923164,0.921332730214
1471539672643561142,-0.189496307873,-0.619380724222,0.604203536585,0.464108558575,-0.216675099409,-0.221824947723,-0.479889568762,3.19474196618,-8.28194923164,0.921332730214
1471539672645051671,-0.187915585324,-0.621206976841,0.602573425756,0.464429640838,-0.26245154559,-0.259781253701,-0.453186680466,3.17884914199,-8.84964300688,0.965125296125
1471539672647238125,-0.187915585324,-0.621206976841,0.602573425756,0.464429640838,-0.26245154559,-0.259781253701,-0.453186680466,3.17884914199,-8.84964300688,0.965125296125
1471539672648775216,-0.187915585324,-0.621206976841,0.602573425756,0.464429640838,-0.26245154559,-0.259781253701,-0.453186680466,3.17884914199,-8.84964300688,0.965125296125
1471539672656568989,-0.186201447811,-0.623034183981,0.60123810919,0.464403017305,-0.226593320446,-0.330162489639,-0.400543748262,3.2429273407,-9.30251487966,0.978998400182
1471539672658032549,-0.186201447811,-0.623034183981,0.60123810919,0.464403017305,-0.226593320446,-0.330162489639,-0.400543748262,3.2429273407,-9.30251487966,0.978998400182
1471539672666048690,-0.18421294205,-0.624517665818,0.600464672979,0.464204107657,-0.0961304795161,-0.373650018595,-0.349045193481,3.38142272393,-9.6152256983,1.10364202109
1471539672667066671,-0.18421294205,-0.624517665818,0.600464672979,0.464204107657,-0.0961304795161,-0.373650018595,-0.349045193481,3.38142272393,-9.6152256983,1.10364202109
1471539672682129244,-0.181969744835,-0.625345411403,0.600463408764,0.463976101904,0.101661779763,-0.375366571432,-0.281524928574,3.7629762283,-9.65608990923,0.968326029996
1471539672682613840,-0.181969744835,-0.625345411403,0.600463408764,0.463976101904,0.101661779763,-0.375366571432,-0.281524928574,3.7629762283,-9.65608990923,0.968326029996
1471539672686559054,-0.179522204873,-0.625639724667,0.600843971525,0.464040121926,0.243187203144,-0.327873570357,-0.287247002302,4.25503784059,-9.48384710394,0.608635012438
1471539672688037345,-0.179522204873,-0.625639724667,0.600843971525,0.464040121926,0.243187203144,-0.327873570357,-0.287247002302,4.25503784059,-9.48384710394,0.608635012438
1471539672703584422,-0.176982993775,-0.625412616991,0.601448809451,0.464537843488,0.358009763024,-0.244140914582,-0.311279666093,4.27574138594,-9.41598066093,0.683044344589
1471539672705036665,-0.174419513038,-0.624734456249,0.602376118775,0.465217910421,0.461388277733,-0.19378689135,-0.290298866767,4.0252379948,-9.41918001662,0.823037732418
1471539672707215998,-0.174419513038,-0.624734456249,0.602376118775,0.465217910421,0.461388277733,-0.19378689135,-0.290298866767,4.0252379948,-9.41918001662,0.823037732418
1471539672708791317,-0.174419513038,-0.624734456249,0.602376118775,0.465217910421,0.461388277733,-0.19378689135,-0.290298866767,4.0252379948,-9.41918001662,0.823037732418
1471539672717083851,-0.171978174395,-0.623722104024,0.6035972053,0.46590198351,0.527191950152,-0.157737967719,-0.236511584004,3.93628770412,-9.27628910586,0.967411102917
1471539672718553527,-0.171978174395,-0.623722104024,0.6035972053,0.46590198351,0.527191950152,-0.157737967719,-0.236511584004,3.93628770412,-9.27628910586,0.967411102917
1471539672726064138,-0.169731057131,-0.622506004445,0.604972978079,0.466567614037,0.552368982911,-0.122833434045,-0.188637059426,3.99413958766,-9.31124885334,1.01824746738
1471539672727058046,-0.169731057131,-0.622506004445,0.604972978079,0.466567614037,0.552368982911,-0.122833434045,-0.188637059426,3.99413958766,-9.31124885334,1.01824746738
1471539672740114326,-0.167822471124,-0.621223948904,0.606445354405,0.467055088416,0.5348212457,-0.101280342891,-0.113678124978,3.54584375318,-9.17456923895,1.17631370824
1471539672741096343,-0.167822471124,-0.621223948904,0.606445354405,0.467055088416,0.5348212457,-0.101280342891,-0.113678124978,3.54584375318,-9.17456923895,1.17631370824
1471539672746884667,-0.165937262193,-0.620115342206,0.60804718903,0.467119260243,0.51345888495,-0.171470853481,-0.0532150924595,3.40287972294,-9.23782196291,1.34851360812
1471539672748352692,-0.165937262193,-0.620115342206,0.60804718903,0.467119260243,0.51345888495,-0.171470853481,-0.0532150924595,3.40287972294,-9.23782196291,1.34851360812
1471539672763384834,-0.164100073764,-0.619235110345,0.609517202922,0.467020152937,0.459480772973,-0.202942109773,-0.0473022962629,3.51943815066,-9.18124392911,1.62885949549
1471539672764367797,-0.162226561457,-0.61872185784,0.610755363787,0.466737282627,0.383377421631,-0.256729357968,-0.063133296796,3.57681680253,-9.1606470789,1.59197666516
1471539672768538374,-0.162226561457,-0.61872185784,0.610755363787,0.466737282627,0.383377421631,-0.256729357968,-0.063133296796,3.57681680253,-9.1606470789,1.59197666516
1471539672769577953,-0.162226561457,-0.61872185784,0.610755363787,0.466737282627,0.383377421631,-0.256729357968,-0.063133296796,3.57681680253,-9.1606470789,1.59197666516
1471539672785011595,-0.158877135602,-0.61839199931,0.612367651293,0.466213739204,0.220871087483,-0.258064405324,-0.10223394032,3.61288753994,-9.12558858423,1.55171199226
1471539672786501699,-0.158877135602,-0.61839199931,0.612367651293,0.466213739204,0.220871087483,-0.258064405324,-0.10223394032,3.61288753994,-9.12558858423,1.55171199226
1471539672794013779,-0.157369346997,-0.618831588487,0.612480947161,0.465992964628,0.0955582067785,-0.257110704067,-0.160980292457,3.71390935542,-9.06007433188,1.38506137917
1471539672795488163,-0.157369346997,-0.618831588487,0.612480947161,0.465992964628,0.0955582067785,-0.257110704067,-0.160980292457,3.71390935542,-9.06007433188,1.38506137917
1471539672799993071,-0.157369346997,-0.618831588487,0.612480947161,0.465992964628,0.0955582067785,-0.257110704067,-0.160980292457,3.71390935542,-9.06007433188,1.38506137917
1471539672802096597,-0.157369346997,-0.618831588487,0.612480947161,0.465992964628,0.0955582067785,-0.257110704067,-0.160980292457,3.71390935542,-9.06007433188,1.38506137917
1471539672806973930,-0.156177037793,-0.619557444742,0.612170175605,0.465837934942,-0.0192642277974,-0.22373207135,-0.178527893251,3.58652415177,-9.16957083896,1.41065054955
1471539672807983004,-0.156177037793,-0.619557444742,0.612170175605,0.465837934942,-0.0192642277974,-0.22373207135,-0.178527893251,3.58652415177,-9.16957083896,1.41065054955
1471539672823033500,-0.154454946057,-0.621816881911,0.610729249297,0.4652926166,-0.177764976009,-0.232124437557,-0.164794999218,3.2359487725,-9.73657362316,1.73797113285
1471539672824488401,-0.154454946057,-0.621816881911,0.610729249297,0.4652926166,-0.177764976009,-0.232124437557,-0.164794999218,3.2359487725,-9.73657362316,1.73797113285
1471539672827089387,-0.154454946057,-0.621816881911,0.610729249297,0.4652926166,-0.177764976009,-0.232124437557,-0.164794999218,3.2359487725,-9.73657362316,1.73797113285
1471539672828698840,-0.154454946057,-0.621816881911,0.610729249297,0.4652926166,-0.177764976009,-0.232124437557,-0.164794999218,3.2359487725,-9.73657362316,1.73797113285
1471539672846001617,-0.153187600629,-0.624250019059,0.609478779229,0.464091683171,-0.169181888229,-0.239753814547,-0.0734329503586,3.17972524919,-10.3521730333,1.97899454659
1471539672847016891,-0.153187600629,-0.624250019059,0.609478779229,0.464091683171,-0.169181888229,-0.239753814547,-0.0734329503586,3.17972524919,-10.3521730333,1.97899454659
1471539672850219668,-0.153187600629,-0.624250019059,0.609478779229,0.464091683171,-0.169181888229,-0.239753814547,-0.0734329503586,3.17972524919,-10.3521730333,1.97899454659
1471539672853014695,-0.152804207057,-0.625125700478,0.609227821634,0.463368313823,-0.122833282528,-0.21114354621,-0.00839233607337,3.20689576256,-10.4869328697,1.99212906701
1471539672860980301,-0.152804207057,-0.625125700478,0.609227821634,0.463368313823,-0.122833282528,-0.21114354621,-0.00839233607337,3.20689576256,-10.4869328697,1.99212906701
1471539672862514730,-0.152804207057,-0.625125700478,0.609227821634,0.463368313823,-0.122833282528,-0.21114354621,-0.00839233607337,3.20689576256,-10.4869328697,1.99212906701
1471539672872315716,-0.15254412746,-0.625728910027,0.609252997489,0.462606101758,-0.0677108879223,-0.184249909107,0.0455856400378,3.22752740075,-10.6300584119,2.11583001856
1471539672873658865,-0.152463333393,-0.625941060031,0.609649240687,0.461823044756,0.00915527471019,-0.140190144,0.116729752555,3.30936319561,-10.7440278802,2.03064050447
1471539672883577716,-0.152619091411,-0.625717335738,0.610338421212,0.461164005844,0.0808715955431,-0.0644683945603,0.171470670739,3.41200717752,-10.7602767451,2.13556918324
1471539672884992886,-0.152619091411,-0.625717335738,0.610338421212,0.461164005844,0.0808715955431,-0.0644683945603,0.171470670739,3.41200717752,-10.7602767451,2.13556918324
1471539672887132164,-0.152619091411,-0.625717335738,0.610338421212,0.461164005844,0.0808715955431,-0.0644683945603,0.171470670739,3.41200717752,-10.7602767451,2.13556918324
1471539672888730420,-0.152619091411,-0.625717335738,0.610338421212,0.461164005844,0.0808715955431,-0.0644683945603,0.171470670739,3.41200717752,-10.7602767451,2.13556918324
1471539672905552155,-0.153753389178,-0.624151016755,0.612274355288,0.460342826008,0.173950271513,0.0982284976195,0.255394093811,3.36158088979,-10.694625,1.96684661651
1471539672907076974,-0.153753389178,-0.624151016755,0.612274355288,0.460342826008,0.173950271513,0.0982284976195,0.255394093811,3.36158088979,-10.694625,1.96684661651
1471539672910291905,-0.153753389178,-0.624151016755,0.612274355288,0.460342826008,0.173950271513,0.0982284976195,0.255394093811,3.36158088979,-10.694625,1.96684661651
1471539672911241235,-0.153753389178,-0.624151016755,0.612274355288,0.460342826008,0.173950271513,0.0982284976195,0.255394093811,3.36158088979,-10.694625,1.96684661651
1471539672921057464,-0.154738427839,-0.623015857891,0.613401189699,0.460050258386,0.18177043494,0.153350923076,0.298309507079,3.23554920756,-10.8185054495,1.95323841379
1471539672924072451,-0.15622099234,-0.621841646985,0.614513375507,0.459653433524,0.135803335603,0.20523088358,0.372886967843,3.09116073354,-10.8679036069,2.18351186512
1471539672932203300,-0.15622099234,-0.621841646985,0.614513375507,0.459653433524,0.135803335603,0.20523088358,0.372886967843,3.09116073354,-10.8679036069,2.18351186512
1471539672933701543,-0.158221102962,-0.620597857787,0.61561938559,0.459170070424,0.0932694572393,0.264740299894,0.449371863509,3.1277375401,-11.1328004323,2.10286042998
1471539672952590199,-0.160567198162,-0.619442617386,0.616562416139,0.458649981625,0.0291824730081,0.299835605024,0.478935880545,2.92768290416,-11.3646165306,2.21564523244
1471539672953080945,-0.160567198162,-0.619442617386,0.616562416139,0.458649981625,0.0291824730081,0.299835605024,0.478935880545,2.92768290416,-11.3646165306,2.21564523244
1471539672954696436,-0.163290531791,-0.618282557323,0.617435886069,0.458078386449,-0.0150680789297,0.342560376679,0.525666145951,2.77844536124,-11.9338065614,2.29271885075
1471539672956179774,-0.163290531791,-0.618282557323,0.617435886069,0.458078386449,-0.0150680789297,0.342560376679,0.525666145951,2.77844536124,-11.9338065614,2.29271885075
1471539672965717651,-0.166260046614,-0.616909764337,0.618509168963,0.4574126665,0.010299703713,0.374222568238,0.592805169257,2.46350500537,-12.8018485776,2.47781765304
1471539672966842055,-0.166260046614,-0.616909764337,0.618509168963,0.4574126665,0.010299703713,0.374222568238,0.592805169257,2.46350500537,-12.8018485776,2.47781765304
1471539672969839085,-0.166260046614,-0.616909764337,0.618509168963,0.4574126665,0.010299703713,0.374222568238,0.592805169257,2.46350500537,-12.8018485776,2.47781765304
1471539672971872723,-0.166260046614,-0.616909764337,0.618509168963,0.4574126665,0.010299703713,0.374222568238,0.592805169257,2.46350500537,-12.8018485776,2.47781765304
1471539672979216836,-0.169105373949,-0.61503977313,0.620151613954,0.456663361438,0.150490179626,0.375367140055,0.656129553754,2.18310907004,-13.872344321,2.82221375396
1471539672980670643,-0.169105373949,-0.61503977313,0.620151613954,0.456663361438,0.150490179626,0.375367140055,0.656129553754,2.18310907004,-13.872344321,2.82221375396
1471539672988679472,-0.171831570089,-0.612305780065,0.622757948833,0.455771960946,0.382615570519,0.388528373453,0.776293804592,2.24060220573,-14.6870539392,3.01142467843
1471539672989686106,-0.171831570089,-0.612305780065,0.622757948833,0.455771960946,0.382615570519,0.388528373453,0.776293804592,2.24060220573,-14.6870539392,3.01142467843
1471539673003190673,-0.177885729263,-0.60388326165,0.630740991892,0.453704170988,0.791747348976,0.527767987139,1.09349254437,1.68762210059,-14.9629639699,3.0087979448
1471539673004227264,-0.177885729263,-0.60388326165,0.630740991892,0.453704170988,0.791747348976,0.527767987139,1.09349254437,1.68762210059,-14.9629639699,3.0087979448
1471539673009202174,-0.177885729263,-0.60388326165,0.630740991892,0.453704170988,0.791747348976,0.527767987139,1.09349254437,1.68762210059,-14.9629639699,3.0087979448
1471539673010520315,-0.177885729263,-0.60388326165,0.630740991892,0.453704170988,0.791747348976,0.527767987139,1.09349254437,1.68762210059,-14.9629639699,3.0087979448
1471539673025715733,-0.185434196312,-0.593445537373,0.64089838109,0.450206417242,0.855647232666,0.559432307938,1.3921910725,1.24511976745,-13.8457968786,2.87864539462
1471539673026660082,-0.185434196312,-0.593445537373,0.64089838109,0.450206417242,0.855647232666,0.559432307938,1.3921910725,1.24511976745,-13.8457968786,2.87864539462
1471539673029843864,-0.185434196312,-0.593445537373,0.64089838109,0.450206417242,0.855647232666,0.559432307938,1.3921910725,1.24511976745,-13.8457968786,2.87864539462
1471539673032053126,-0.185434196312,-0.593445537373,0.64089838109,0.450206417242,0.855647232666,0.559432307938,1.3921910725,1.24511976745,-13.8457968786,2.87864539462
1471539673039192731,-0.190378656089,-0.588392865359,0.645854687134,0.447684628291,0.699624902611,0.602921024306,1.5426843545,1.2737677234,-13.3670901177,2.8950620273
1471539673040681615,-0.190378656089,-0.588392865359,0.645854687134,0.447684628291,0.699624902611,0.602921024306,1.5426843545,1.2737677234,-13.3670901177,2.8950620273
1471539673048675083,-0.196189973668,-0.583737777603,0.650479707722,0.444562538991,0.508697209878,0.621613875888,1.67715581795,1.1787381296,-13.1877730599,3.01901767255
1471539673049890427,-0.196189973668,-0.583737777603,0.650479707722,0.444562538991,0.508697209878,0.621613875888,1.67715581795,1.1787381296,-13.1877730599,3.01901767255
1471539673070748108,-0.210215096489,-0.575742463745,0.658273126424,0.437043155395,0.106241041057,0.689326970162,1.84500824084,1.00869079329,-12.9476589937,3.41555637008
1471539673073216289,-0.218186078056,-0.572287589389,0.661569259143,0.432675242798,-0.0432975726222,0.705731359921,1.92492996873,0.979460687234,-13.0115534015,3.49217530317
1471539673075169229,-0.218186078056,-0.572287589389,0.661569259143,0.432675242798,-0.0432975726222,0.705731359921,1.92492996873,0.979460687234,-13.0115534015,3.49217530317
1471539673076681470,-0.218186078056,-0.572287589389,0.661569259143,0.432675242798,-0.0432975726222,0.705731359921,1.92492996873,0.979460687234,-13.0115534015,3.49217530317
1471539673085696096,-0.226533710579,-0.568786519094,0.664685219549,0.428203144059,-0.0953692015919,0.757231460639,1.96765736724,0.922051175587,-13.1285745818,3.62584885842
1471539673087127242,-0.226533710579,-0.568786519094,0.664685219549,0.428203144059,-0.0953692015919,0.757231460639,1.96765736724,0.922051175587,-13.1285745818,3.62584885842
1471539673090198943,-0.226533710579,-0.568786519094,0.664685219549,0.428203144059,-0.0953692015919,0.757231460639,1.96765736724,0.922051175587,-13.1285745818,3.62584885842
1471539673092209551,-0.226533710579,-0.568786519094,0.664685219549,0.428203144059,-0.0953692015919,0.757231460639,1.96765736724,0.922051175587,-13.1285745818,3.62584885842
1471539673099620395,-0.235138359834,-0.56488514564,0.667929671191,0.423656320988,-0.0526438762306,0.809685705069,2.03632616898,1.00877518161,-13.4033517845,3.58372901816
1471539673100898327,-0.235138359834,-0.56488514564,0.667929671191,0.423656320988,-0.0526438762306,0.809685705069,2.03632616898,1.00877518161,-13.4033517845,3.58372901816
1471539673108887751,-0.24392774811,-0.560051158131,0.67161807421,0.419250660551,0.112536070151,0.911542168226,2.11892068358,1.07962324921,-13.4868230745,3.77075460553
1471539673110539555,-0.24392774811,-0.560051158131,0.67161807421,0.419250660551,0.112536070151,0.911542168226,2.11892068358,1.07962324921,-13.4868230745,3.77075460553
1471539673123083483,-0.261961364483,-0.546711140971,0.68094676785,0.410846286598,0.581377042504,1.13414301008,2.33828778348,1.19555362041,-12.6667997102,3.71559135417
1471539673124506431,-0.261961364483,-0.546711140971,0.68094676785,0.410846286598,0.581377042504,1.13414301008,2.33828778348,1.19555362041,-12.6667997102,3.71559135417
1471539673127497898,-0.261961364483,-0.546711140971,0.68094676785,0.410846286598,0.581377042504,1.13414301008,2.33828778348,1.19555362041,-12.6667997102,3.71559135417
1471539673128674569,-0.261961364483,-0.546711140971,0.68094676785,0.410846286598,0.581377042504,1.13414301008,2.33828778348,1.19555362041,-12.6667997102,3.71559135417
1471539673144579735,-0.280617477005,-0.529098332636,0.691777359684,0.403426412905,0.886949039027,1.35636443366,2.45198492402,1.06261223993,-10.8283924245,3.39217264938
1471539673146003099,-0.280617477005,-0.529098332636,0.691777359684,0.403426412905,0.886949039027,1.35636443366,2.45198492402,1.06261223993,-10.8283924245,3.39217264938
1471539673154055695,-0.290269462714,-0.519574614038,0.696953496039,0.400052101384,0.899538831908,1.44906626506,2.43997047027,0.867966983485,-9.91494441096,3.37801161397
1471539673155055165,-0.290269462714,-0.519574614038,0.696953496039,0.400052101384,0.899538831908,1.44906626506,2.43997047027,0.867966983485,-9.91494441096,3.37801161397
1471539673158993265,-0.290269462714,-0.519574614038,0.696953496039,0.400052101384,0.899538831908,1.44906626506,2.43997047027,0.867966983485,-9.91494441096,3.37801161397
1471539673160521340,-0.290269462714,-0.519574614038,0.696953496039,0.400052101384,0.899538831908,1.44906626506,2.43997047027,0.867966983485,-9.91494441096,3.37801161397
1471539673168518982,-0.300003163399,-0.510117343312,0.701603684685,0.396901332374,0.841933909178,1.51258176252,2.37034723365,0.815518806384,-9.10853012906,3.18839996032
1471539673170018191,-0.300003163399,-0.510117343312,0.701603684685,0.396901332374,0.841933909178,1.51258176252,2.37034723365,0.815518806384,-9.10853012906,3.18839996032
1471539673183034581,-0.319774498952,-0.492737397718,0.708449069341,0.391221219849,0.534455586448,1.58791675845,2.14526123511,0.600834835793,-8.04492874107,3.33077742224
1471539673184552269,-0.319774498952,-0.492737397718,0.708449069341,0.391221219849,0.534455586448,1.58791675845,2.14526123511,0.600834835793,-8.04492874107,3.33077742224
1471539673194636371,-0.329784897663,-0.484923816276,0.710723465457,0.388539533807,0.378428895534,1.61614316122,2.04321085129,0.584638360811,-7.69091528593,3.29132673335
1471539673196176912,-0.329784897663,-0.484923816276,0.710723465457,0.388539533807,0.378428895534,1.61614316122,2.04321085129,0.584638360811,-7.69091528593,3.29132673335
1471539673205505525,-0.339714067788,-0.477845010459,0.712172865933,0.386093650757,0.215726753364,1.62453117453,1.88946880532,0.530929111799,-7.53026015334,3.33079794682
1471539673207012476,-0.339714067788,-0.477845010459,0.712172865933,0.386093650757,0.215726753364,1.62453117453,1.88946880532,0.530929111799,-7.53026015334,3.33079794682
1471539673210157944,-0.339714067788,-0.477845010459,0.712172865933,0.386093650757,0.215726753364,1.62453117453,1.88946880532,0.530929111799,-7.53026015334,3.33079794682
1471539673211897373,-0.339714067788,-0.477845010459,0.712172865933,0.386093650757,0.215726753364,1.62453117453,1.88946880532,0.530929111799,-7.53026015334,3.33079794682
1471539673219528192,-0.349425538502,-0.471614479213,0.71281901648,0.383888819561,0.0511181189195,1.60468930772,1.7151273333,0.423874097374,-7.3824799809,3.18569408821
1471539673220501726,-0.349425538502,-0.471614479213,0.71281901648,0.383888819561,0.0511181189195,1.60468930772,1.7151273333,0.423874097374,-7.3824799809,3.18569408821
1471539673228529783,-0.35888698263,-0.466000291586,0.712927618877,0.381808947228,-0.0591290406339,1.57416765275,1.5884730658,0.0660629510494,-7.65222218805,3.24740256804
1471539673230079699,-0.35888698263,-0.466000291586,0.712927618877,0.381808947228,-0.0591290406339,1.57416765275,1.5884730658,0.0660629510494,-7.65222218805,3.24740256804
1471539673243217977,-0.376035860735,-0.455330410387,0.713152780722,0.377735833839,0.0122072348346,1.37255096672,1.45552201598,-0.734452689559,-8.31394801129,3.32646090361
1471539673244712002,-0.376035860735,-0.455330410387,0.713152780722,0.377735833839,0.0122072348346,1.37255096672,1.45552201598,-0.734452689559,-8.31394801129,3.32646090361
1471539673247364157,-0.376035860735,-0.455330410387,0.713152780722,0.377735833839,0.0122072348346,1.37255096672,1.45552201598,-0.734452689559,-8.31394801129,3.32646090361
1471539673248939699,-0.376035860735,-0.455330410387,0.713152780722,0.377735833839,0.0122072348346,1.37255096672,1.45552201598,-0.734452689559,-8.31394801129,3.32646090361
1471539673265774877,-0.38996049663,-0.443556085666,0.715137549701,0.373854376657,0.336461139069,1.1366054012,1.43091352908,-0.699527099144,-8.22192799268,3.308253917
1471539673266766826,-0.38996049663,-0.443556085666,0.715137549701,0.373854376657,0.336461139069,1.1366054012,1.43091352908,-0.699527099144,-8.22192799268,3.308253917
1471539673272715199,-0.38996049663,-0.443556085666,0.715137549701,0.373854376657,0.336461139069,1.1366054012,1.43091352908,-0.699527099144,-8.22192799268,3.308253917
1471539673273721725,-0.396162703115,-0.437060925156,0.716592033263,0.372194462916,0.466162636126,1.10799457989,1.40306561021,-0.475853185148,-7.97323321893,3.0863019028
1471539673279218937,-0.396162703115,-0.437060925156,0.716592033263,0.372194462916,0.466162636126,1.10799457989,1.40306561021,-0.475853185148,-7.97323321893,3.0863019028
1471539673280727324,-0.396162703115,-0.437060925156,0.716592033263,0.372194462916,0.466162636126,1.10799457989,1.40306561021,-0.475853185148,-7.97323321893,3.0863019028
1471539673288726019,-0.401967223774,-0.430390822276,0.718016838723,0.370995836124,0.555045993509,1.10780313756,1.31360885131,-0.700963226578,-7.46826243258,2.80450374296
1471539673289723633,-0.401967223774,-0.430390822276,0.718016838723,0.370995836124,0.555045993509,1.10780313756,1.31360885131,-0.700963226578,-7.46826243258,2.80450374296
1471539673303724764,-0.412030601326,-0.417632871956,0.720495765312,0.36972884659,0.605398884006,1.01681835244,1.07136910254,-1.5030413065,-6.69187063384,2.46709056979
1471539673304720040,-0.412030601326,-0.417632871956,0.720495765312,0.36972884659,0.605398884006,1.01681835244,1.07136910254,-1.5030413065,-6.69187063384,2.46709056979
1471539673314853107,-0.416226070729,-0.411970857533,0.721497920277,0.369427424031,0.566105855308,0.912674028858,0.934608723386,-1.72597574525,-6.54054306948,2.37285111802
1471539673316396554,-0.416226070729,-0.411970857533,0.721497920277,0.369427424031,0.566105855308,0.912674028858,0.934608723386,-1.72597574525,-6.54054306948,2.37285111802
1471539673325753561,-0.419823358382,-0.406740334034,0.722482738342,0.36922803418,0.555233004888,0.804715921547,0.833326347769,-1.69198921904,-6.78783499534,2.39806565037
1471539673326718689,-0.419823358382,-0.406740334034,0.722482738342,0.36922803418,0.555233004888,0.804715921547,0.833326347769,-1.69198921904,-6.78783499534,2.39806565037
1471539673329981525,-0.419823358382,-0.406740334034,0.722482738342,0.36922803418,0.555233004888,0.804715921547,0.833326347769,-1.69198921904,-6.78783499534,2.39806565037
1471539673330896082,-0.419823358382,-0.406740334034,0.722482738342,0.36922803418,0.555233004888,0.804715921547,0.833326347769,-1.69198921904,-6.78783499534,2.39806565037
1471539673339278678,-0.422796753621,-0.40171770189,0.723635251639,0.369076978016,0.588992731869,0.689129125726,0.77057339273,-1.72042307171,-7.10294004446,2.46260912793
1471539673340710911,-0.422796753621,-0.40171770189,0.723635251639,0.369076978016,0.588992731869,0.689129125726,0.77057339273,-1.72042307171,-7.10294004446,2.46260912793
1471539673348729266,-0.425352473502,-0.396683290109,0.725098156799,0.368714393047,0.628665686938,0.586513042274,0.791554187134,-1.68292361849,-7.22860832385,2.42982394337
1471539673350214198,-0.425352473502,-0.396683290109,0.725098156799,0.368714393047,0.628665686938,0.586513042274,0.791554187134,-1.68292361849,-7.22860832385,2.42982394337
1471539673363227207,-0.429610052859,-0.386169929074,0.728755851208,0.367726661655,0.732235580632,0.487330531001,0.825696230413,-1.26287264005,-7.29501489225,2.55821037704
1471539673364724472,-0.429610052859,-0.386169929074,0.728755851208,0.367726661655,0.732235580632,0.487330531001,0.825696230413,-1.26287264005,-7.29501489225,2.55821037704
1471539673367610779,-0.429610052859,-0.386169929074,0.728755851208,0.367726661655,0.732235580632,0.487330531001,0.825696230413,-1.26287264005,-7.29501489225,2.55821037704
1471539673370616665,-0.429610052859,-0.386169929074,0.728755851208,0.367726661655,0.732235580632,0.487330531001,0.825696230413,-1.26287264005,-7.29501489225,2.55821037704
1471539673385623111,-0.432871259376,-0.376023566645,0.732645512663,0.366686927649,0.7223166564,0.36735724326,0.763134127873,-1.58400989121,-7.05620752918,2.80833529685
1471539673387114368,-0.432871259376,-0.376023566645,0.732645512663,0.366686927649,0.7223166564,0.36735724326,0.763134127873,-1.58400989121,-7.05620752918,2.80833529685
1471539673389807606,-0.432871259376,-0.376023566645,0.732645512663,0.366686927649,0.7223166564,0.36735724326,0.763134127873,-1.58400989121,-7.05620752918,2.80833529685
1471539673391262092,-0.432871259376,-0.376023566645,0.732645512663,0.366686927649,0.7223166564,0.36735724326,0.763134127873,-1.58400989121,-7.05620752918,2.80833529685
1471539673399644733,-0.434015398238,-0.371393764596,0.73462574807,0.366090584397,0.69351509225,0.288583150323,0.720218093602,-1.67091411293,-6.92390456953,2.85369395891
1471539673400610150,-0.434015398238,-0.371393764596,0.73462574807,0.366090584397,0.69351509225,0.288583150323,0.720218093602,-1.67091411293,-6.92390456953,2.85369395891
1471539673408625839,-0.434791609713,-0.366921283373,0.736633928314,0.365643930058,0.712397670768,0.231743820611,0.659373158727,-1.87953707548,-6.94458265896,2.97099818658
1471539673409628584,-0.434791609713,-0.366921283373,0.736633928314,0.365643930058,0.712397670768,0.231743820611,0.659373158727,-1.87953707548,-6.94458265896,2.97099818658
1471539673431098238,-0.435117480025,-0.358013961192,0.740887082556,0.365492972668,0.816157754401,0.130463169902,0.528909897862,-2.19037543995,-6.72645099361,3.0712561223
1471539673432752386,-0.434512785094,-0.353945304054,0.743002754715,0.365880127657,0.834086564665,0.0495912432685,0.408937021414,-2.42510571802,-6.56791329121,3.09690992891
1471539673435103853,-0.434512785094,-0.353945304054,0.743002754715,0.365880127657,0.834086564665,0.0495912432685,0.408937021414,-2.42510571802,-6.56791329121,3.09690992891
1471539673436612707,-0.434512785094,-0.353945304054,0.743002754715,0.365880127657,0.834086564665,0.0495912432685,0.408937021414,-2.42510571802,-6.56791329121,3.09690992891
1471539673445616377,-0.43357530057,-0.349985794503,0.745178029412,0.366377001001,0.855830416293,-0.00553133097225,0.364114166415,-2.5165443359,-6.26001882237,2.91625251576
1471539673446597316,-0.43357530057,-0.349985794503,0.745178029412,0.366377001001,0.855830416293,-0.00553133097225,0.364114166415,-2.5165443359,-6.26001882237,2.91625251576
1471539673452683117,-0.43275743011,-0.346165648497,0.747227599399,0.366798671183,0.811007305281,0.00782015510737,0.362397431805,-2.4219600479,-6.03891900878,2.82594997857
1471539673453618771,-0.43275743011,-0.346165648497,0.747227599399,0.366798671183,0.811007305281,0.00782015510737,0.362397431805,-2.4219600479,-6.03891900878,2.82594997857
1471539673468126998,-0.431861091647,-0.342668653116,0.749169166434,0.367178092697,0.757410291988,-0.0209808945149,0.327301954433,-2.80236600875,-5.94935634579,3.04963599315
1471539673469129927,-0.431861091647,-0.342668653116,0.749169166434,0.367178092697,0.757410291988,-0.0209808945149,0.327301954433,-2.80236600875,-5.94935634579,3.04963599315
1471539673471614113,-0.431861091647,-0.342668653116,0.749169166434,0.367178092697,0.757410291988,-0.0209808945149,0.327301954433,-2.80236600875,-5.94935634579,3.04963599315
1471539673473634362,-0.430745343152,-0.339600864926,0.751098354424,0.367397555621,0.694467316569,-0.0953676622588,0.298310047546,-2.95560607548,-6.13657801953,3.28813258404
1471539673483624839,-0.429392853313,-0.336826272489,0.753084210021,0.367469743383,0.658990442161,-0.167274853191,0.283241912188,-2.91518672871,-6.3495236755,3.37851115459
1471539673485137706,-0.429392853313,-0.336826272489,0.753084210021,0.367469743383,0.658990442161,-0.167274853191,0.283241912188,-2.91518672871,-6.3495236755,3.37851115459
1471539673487696655,-0.429392853313,-0.336826272489,0.753084210021,0.367469743383,0.658990442161,-0.167274853191,0.283241912188,-2.91518672871,-6.3495236755,3.37851115459
1471539673489346659,-0.429392853313,-0.336826272489,0.753084210021,0.367469743383,0.658990442161,-0.167274853191,0.283241912188,-2.91518672871,-6.3495236755,3.37851115459
1471539673505604366,-0.425618190767,-0.331514808762,0.757294588848,0.368038031948,0.732233107494,-0.27809217784,0.177002428694,-2.572768548,-6.56392046862,3.62442870167
1471539673507110005,-0.425618190767,-0.331514808762,0.757294588848,0.368038031948,0.732233107494,-0.27809217784,0.177002428694,-2.572768548,-6.56392046862,3.62442870167
1471539673509766170,-0.425618190767,-0.331514808762,0.757294588848,0.368038031948,0.732233107494,-0.27809217784,0.177002428694,-2.572768548,-6.56392046862,3.62442870167
1471539673511344336,-0.425618190767,-0.331514808762,0.757294588848,0.368038031948,0.732233107494,-0.27809217784,0.177002428694,-2.572768548,-6.56392046862,3.62442870167
1471539673519114393,-0.423439946973,-0.328713553007,0.759404790613,0.368714490318,0.783731851605,-0.260163116473,0.148010687964,-2.59978924196,-6.56208116924,3.99642762754
1471539673520618465,-0.423439946973,-0.328713553007,0.759404790613,0.368714490318,0.783731851605,-0.260163116473,0.148010687964,-2.59978924196,-6.56208116924,3.99642762754
1471539673528599222,-0.421408301624,-0.325742470159,0.761545001931,0.369264263762,0.789835429029,-0.236321201779,0.193596464734,-2.50836323891,-6.25014477935,4.17274560552
1471539673529681355,-0.421408301624,-0.325742470159,0.761545001931,0.369264263762,0.789835429029,-0.236321201779,0.193596464734,-2.50836323891,-6.25014477935,4.17274560552
1471539673542624261,-0.419838033322,-0.32276916317,0.763496254948,0.36963436226,0.728609039541,-0.161552842013,0.237274776227,-2.39650618676,-6.21325471828,4.29707461622
1471539673544111499,-0.418634326986,-0.320016883858,0.765256781595,0.369752014919,0.63419471075,-0.122070560866,0.266838616643,-2.4479086479,-6.13753534222,4.67806984706
1471539673549607309,-0.418634326986,-0.320016883858,0.765256781595,0.369752014919,0.63419471075,-0.122070560866,0.266838616643,-2.4479086479,-6.13753534222,4.67806984706
1471539673550620521,-0.418634326986,-0.320016883858,0.765256781595,0.369752014919,0.63419471075,-0.122070560866,0.266838616643,-2.4479086479,-6.13753534222,4.67806984706
1471539673565687341,-0.417197622493,-0.315932841192,0.767797559184,0.369620740427,0.384140317333,-0.0698090149671,0.191497953626,-2.47874536459,-6.58008815904,4.82127571161
1471539673567233675,-0.417197622493,-0.315932841192,0.767797559184,0.369620740427,0.384140317333,-0.0698090149671,0.191497953626,-2.47874536459,-6.58008815904,4.82127571161
1471539673569808904,-0.417197622493,-0.315932841192,0.767797559184,0.369620740427,0.384140317333,-0.0698090149671,0.191497953626,-2.47874536459,-6.58008815904,4.82127571161
1471539673571534676,-0.417197622493,-0.315932841192,0.767797559184,0.369620740427,0.384140317333,-0.0698090149671,0.191497953626,-2.47874536459,-6.58008815904,4.82127571161
1471539673579254185,-0.416386143319,-0.314476874839,0.768737062892,0.369824557025,0.36106132107,-0.0839233921135,0.109863349676,-2.74831557006,-7.02667956132,5.08587240254
1471539673580252107,-0.416386143319,-0.314476874839,0.768737062892,0.369824557025,0.36106132107,-0.0839233921135,0.109863349676,-2.74831557006,-7.02667956132,5.08587240254
1471539673588648608,-0.415200662148,-0.313192141026,0.769635556966,0.370378458345,0.388908658481,-0.128555387845,0.0152587997442,-2.9303188322,-7.19350063064,5.3726753059
1471539673589648503,-0.415200662148,-0.313192141026,0.769635556966,0.370378458345,0.388908658481,-0.128555387845,0.0152587997442,-2.9303188322,-7.19350063064,5.3726753059
1471539673602981870,-0.413623041358,-0.312001808452,0.770571441229,0.371201434727,0.428009424606,-0.182151961006,-0.0556946310093,-2.91054371039,-7.35627374395,5.3772997428
1471539673603973999,-0.411808490179,-0.310763218978,0.771550390025,0.372223030989,0.472069325897,-0.206184622745,-0.0938416599358,-3.00375994632,-7.39998784714,5.64249835374
1471539673608984460,-0.411808490179,-0.310763218978,0.771550390025,0.372223030989,0.472069325897,-0.206184622745,-0.0938416599358,-3.00375994632,-7.39998784714,5.64249835374
1471539673610476589,-0.411808490179,-0.310763218978,0.771550390025,0.372223030989,0.472069325897,-0.206184622745,-0.0938416599358,-3.00375994632,-7.39998784714,5.64249835374
1471539673625484239,-0.407654853418,-0.307903713662,0.773677515299,0.374747816431,0.568009348405,-0.219154715016,-0.142860645385,-2.62264084107,-7.4177040063,5.67201650385
1471539673626972107,-0.407654853418,-0.307903713662,0.773677515299,0.374747816431,0.568009348405,-0.219154715016,-0.142860645385,-2.62264084107,-7.4177040063,5.67201650385
1471539673637153159,-0.405666842061,-0.306325335838,0.774616273456,0.376256336522,0.57468506378,-0.173950474002,-0.154876957116,-2.29647539985,-7.31565092293,5.74204678871
1471539673638671312,-0.405666842061,-0.306325335838,0.774616273456,0.376256336522,0.57468506378,-0.173950474002,-0.154876957116,-2.29647539985,-7.31565092293,5.74204678871
1471539673641657280,-0.405666842061,-0.306325335838,0.774616273456,0.376256336522,0.57468506378,-0.173950474002,-0.154876957116,-2.29647539985,-7.31565092293,5.74204678871
1471539673643240426,-0.404086929527,-0.304557639525,0.775366239683,0.377843343136,0.568009247102,-0.0762940560245,-0.140762533365,-2.27839029879,-7.3286265166,5.81137420939
1471539673648555012,-0.404086929527,-0.304557639525,0.775366239683,0.377843343136,0.568009247102,-0.0762940560245,-0.140762533365,-2.27839029879,-7.3286265166,5.81137420939
1471539673649988479,-0.404086929527,-0.304557639525,0.775366239683,0.377843343136,0.568009247102,-0.0762940560245,-0.140762533365,-2.27839029879,-7.3286265166,5.81137420939
1471539673662980085,-0.401971745546,-0.300687915689,0.776415753296,0.381030275931,0.52528444696,0.0627518456971,-0.0978471028651,-2.63219890756,-7.28172204975,5.78995992519
1471539673665014407,-0.401971745546,-0.300687915689,0.776415753296,0.381030275931,0.52528444696,0.0627518456971,-0.0978471028651,-2.63219890756,-7.28172204975,5.78995992519
1471539673669875447,-0.401971745546,-0.300687915689,0.776415753296,0.381030275931,0.52528444696,0.0627518456971,-0.0978471028651,-2.63219890756,-7.28172204975,5.78995992519
1471539673670872950,-0.401971745546,-0.300687915689,0.776415753296,0.381030275931,0.52528444696,0.0627518456971,-0.0978471028651,-2.63219890756,-7.28172204975,5.78995992519
1471539673685863638,-0.401099403877,-0.297136732574,0.776806754292,0.383927463006,0.412369116636,0.145340086437,-0.0894547251167,-3.05361592964,-7.42308604407,5.9578305197
1471539673686901898,-0.401099403877,-0.297136732574,0.776806754292,0.383927463006,0.412369116636,0.145340086437,-0.0894547251167,-3.05361592964,-7.42308604407,5.9578305197
1471539673689720923,-0.401099403877,-0.297136732574,0.776806754292,0.383927463006,0.412369116636,0.145340086437,-0.0894547251167,-3.05361592964,-7.42308604407,5.9578305197
1471539673691083046,-0.401099403877,-0.297136732574,0.776806754292,0.383927463006,0.412369116636,0.145340086437,-0.0894547251167,-3.05361592964,-7.42308604407,5.9578305197
1471539673708863472,-0.40082540988,-0.294228792012,0.776784744004,0.386489159264,0.33226034272,0.1863480797,-0.0848770680311,-2.98850508558,-7.65820906173,5.92797495735
1471539673710367828,-0.40082540988,-0.294228792012,0.776784744004,0.386489159264,0.33226034272,0.1863480797,-0.0848770680311,-2.98850508558,-7.65820906173,5.92797495735
1471539673714110329,-0.40082540988,-0.294228792012,0.776784744004,0.386489159264,0.33226034272,0.1863480797,-0.0848770680311,-2.98850508558,-7.65820906173,5.92797495735
1471539673715610500,-0.4009036896,-0.292500978389,0.77683048814,0.387625853115,0.356292978706,0.208473354243,-0.0274658399002,-3.19708731922,-7.85756697467,5.79070989866
1471539673723874746,-0.400871047835,-0.290617067549,0.776977991458,0.388779273943,0.396347369241,0.196075599413,-0.0160217415863,-3.45722249042,-8.04423268172,5.78353959899
1471539673724856529,-0.400871047835,-0.290617067549,0.776977991458,0.388779273943,0.396347369241,0.196075599413,-0.0160217415863,-3.45722249042,-8.04423268172,5.78353959899
1471539673729899769,-0.400871047835,-0.290617067549,0.776977991458,0.388779273943,0.396347369241,0.196075599413,-0.0160217415863,-3.45722249042,-8.04423268172,5.78353959899
1471539673731042637,-0.400871047835,-0.290617067549,0.776977991458,0.388779273943,0.396347369241,0.196075599413,-0.0160217415863,-3.45722249042,-8.04423268172,5.78353959899
1471539673745386859,-0.400212264905,-0.286299293571,0.777800737629,0.391010063893,0.49247794731,0.124549999843,0.0198364471418,-3.65193783582,-7.68847233584,5.42277556598
1471539673746862800,-0.400212264905,-0.286299293571,0.777800737629,0.391010063893,0.49247794731,0.124549999843,0.0198364471418,-3.65193783582,-7.68847233584,5.42277556598
1471539673752495242,-0.400212264905,-0.286299293571,0.777800737629,0.391010063893,0.49247794731,0.124549999843,0.0198364471418,-3.65193783582,-7.68847233584,5.42277556598
1471539673753506574,-0.400212264905,-0.286299293571,0.777800737629,0.391010063893,0.49247794731,0.124549999843,0.0198364471418,-3.65193783582,-7.68847233584,5.42277556598
1471539673768361525,-0.399126346249,-0.28256588437,0.778752786338,0.392936099755,0.408935840708,0.0720978301249,-0.00457764000793,-3.45624188534,-7.26375624814,5.31805314447
1471539673769851587,-0.399126346249,-0.28256588437,0.778752786338,0.392936099755,0.408935840708,0.0720978301249,-0.00457764000793,-3.45624188534,-7.26375624814,5.31805314447
1471539673773991728,-0.398742535139,-0.281156651061,0.778995592233,0.393854282085,0.336647203668,0.0831604423791,-0.0305175935336,-3.67548776756,-7.1630215571,5.45487470668
1471539673776552437,-0.398742535139,-0.281156651061,0.778995592233,0.393854282085,0.336647203668,0.0831604423791,-0.0305175935336,-3.67548776756,-7.1630215571,5.45487470668
1471539673783392261,-0.398435298672,-0.280263586207,0.779068184774,0.394657317799,0.231361448194,0.0614166416475,-0.0627517860311,-3.71249787316,-7.18070851786,5.28337348778
1471539673784418828,-0.398435298672,-0.280263586207,0.779068184774,0.394657317799,0.231361448194,0.0614166416475,-0.0627517860311,-3.71249787316,-7.18070851786,5.28337348778
1471539673787473914,-0.398435298672,-0.280263586207,0.779068184774,0.394657317799,0.231361448194,0.0614166416475,-0.0627517860311,-3.71249787316,-7.18070851786,5.28337348778
1471539673789082776,-0.398435298672,-0.280263586207,0.779068184774,0.394657317799,0.231361448194,0.0614166416475,-0.0627517860311,-3.71249787316,-7.18070851786,5.28337348778
1471539673805440054,-0.398436840894,-0.279543778967,0.778877367965,0.395541913243,0.0251770025115,0.0545501721082,-0.04138946625,-3.88176041287,-6.99546651094,5.0306445968
1471539673806894663,-0.398436840894,-0.279543778967,0.778877367965,0.395541913243,0.0251770025115,0.0545501721082,-0.04138946625,-3.88176041287,-6.99546651094,5.0306445968
1471539673813063120,-0.398436840894,-0.279543778967,0.778877367965,0.395541913243,0.0251770025115,0.0545501721082,-0.04138946625,-3.88176041287,-6.99546651094,5.0306445968
1471539673814103188,-0.398633470421,-0.27996773551,0.778619826682,0.39555099397,-0.0953674360793,0.0177383431108,-0.0419616718749,-4.04559259831,-7.07111178039,5.01336023288
1471539673828378031,-0.398811082839,-0.280785311504,0.778386169351,0.395252198491,-0.178337122186,-0.0354766895471,-0.0246048008149,-3.94507965371,-7.35398657787,5.02792465986
1471539673829368207,-0.398811082839,-0.280785311504,0.778386169351,0.395252198491,-0.178337122186,-0.0354766895471,-0.0246048008149,-3.94507965371,-7.35398657787,5.02792465986
1471539673834082160,-0.398769038873,-0.281844274943,0.778255849523,0.394797278361,-0.205230758969,-0.105857872888,-0.023651128357,-3.9148832641,-7.58621984146,5.05410705863
1471539673835545295,-0.398769038873,-0.281844274943,0.778255849523,0.394797278361,-0.205230758969,-0.105857872888,-0.023651128357,-3.9148832641,-7.58621984146,5.05410705863
1471539673850893383,-0.398411325541,-0.282939080016,0.778255988634,0.394374832915,-0.175857587996,-0.166320842443,-0.0391006567669,-3.89356562343,-7.8652703451,4.91595249768
1471539673854441946,-0.397744811737,-0.283779848366,0.778465064725,0.394030716317,-0.0938415732632,-0.206565902122,-0.0320434640411,-4.02199391375,-8.01074868594,4.88321310228
1471539673854770538,-0.397744811737,-0.283779848366,0.778465064725,0.394030716317,-0.0938415732632,-0.206565902122,-0.0320434640411,-4.02199391375,-8.01074868594,4.88321310228
1471539673855281518,-0.397744811737,-0.283779848366,0.778465064725,0.394030716317,-0.0938415732632,-0.206565902122,-0.0320434640411,-4.02199391375,-8.01074868594,4.88321310228
1471539673865895935,-0.396748150064,-0.28421590804,0.778979725702,0.393703962368,0.0139236486422,-0.249481266082,0.0028610236936,-3.87576494745,-8.00103281531,4.8093402147
1471539673866908556,-0.396748150064,-0.28421590804,0.778979725702,0.393703962368,0.0139236486422,-0.249481266082,0.0028610236936,-3.87576494745,-8.00103281531,4.8093402147
1471539673878569286,-0.395700367179,-0.284299760692,0.779554625381,0.393559971964,0.0907898170471,-0.224113518971,0.00419616801478,-3.71232504956,-7.79690067921,4.78523072334
1471539673880162097,-0.395700367179,-0.284299760692,0.779554625381,0.393559971964,0.0907898170471,-0.224113518971,0.00419616801478,-3.71232504956,-7.79690067921,4.78523072334
1471539673887876598,-0.394673017039,-0.284040000873,0.780148022324,0.393603291132,0.158691445456,-0.184631393271,0.00476837276011,-3.75061546446,-7.60144582384,4.94924550585
1471539673889385103,-0.394673017039,-0.284040000873,0.780148022324,0.393603291132,0.158691445456,-0.184631393271,0.00476837276011,-3.75061546446,-7.60144582384,4.94924550585
1471539673893011298,-0.394673017039,-0.284040000873,0.780148022324,0.393603291132,0.158691445456,-0.184631393271,0.00476837276011,-3.75061546446,-7.60144582384,4.94924550585
1471539673894089490,-0.39378771441,-0.283577812673,0.780724136625,0.39368094014,0.18081669085,-0.143241914376,0.0221252490914,-3.74469315084,-7.4656285421,5.16080315196
1471539673902528505,-0.39378771441,-0.283577812673,0.780724136625,0.39368094014,0.18081669085,-0.143241914376,0.0221252490914,-3.74469315084,-7.4656285421,5.16080315196
1471539673903987706,-0.393076874675,-0.282899685235,0.781266707991,0.393802830962,0.202369733214,-0.0938415728003,0.0394821251416,-3.76489244783,-7.36856953324,5.39290916027
1471539673915722593,-0.392473785634,-0.282153564341,0.781814305552,0.393852872726,0.199127238217,-0.0761032261002,0.0625610480223,-3.69285568143,-7.42744266467,5.51417566574
1471539673916709089,-0.392473785634,-0.282153564341,0.781814305552,0.393852872726,0.199127238217,-0.0761032261002,0.0625610480223,-3.69285568143,-7.42744266467,5.51417566574
1471539673925590245,-0.392051972756,-0.281322210514,0.782278478739,0.393945994054,0.196838415118,-0.0320434629263,0.0661850097346,-3.66417643448,-7.5116641188,5.60433585044
1471539673926591232,-0.392051972756,-0.281322210514,0.782278478739,0.393945994054,0.196838415118,-0.0320434629263,0.0661850097346,-3.66417643448,-7.5116641188,5.60433585044
1471539673929860961,-0.392051972756,-0.281322210514,0.782278478739,0.393945994054,0.196838415118,-0.0320434629263,0.0661850097346,-3.66417643448,-7.5116641188,5.60433585044
1471539673931365426,-0.392051972756,-0.281322210514,0.782278478739,0.393945994054,0.196838415118,-0.0320434629263,0.0661850097346,-3.66417643448,-7.5116641188,5.60433585044
1471539673948577162,-0.391911789071,-0.279030221781,0.783017072785,0.39424808008,0.212287955601,0.0762939642771,0.0936508411501,-3.86016227255,-7.45320611694,5.53298811363
1471539673949629815,-0.391911789071,-0.279030221781,0.783017072785,0.39424808008,0.212287955601,0.0762939642771,0.0936508411501,-3.86016227255,-7.45320611694,5.53298811363
1471539673952770039,-0.391911789071,-0.279030221781,0.783017072785,0.39424808008,0.212287955601,0.0762939642771,0.0936508411501,-3.86016227255,-7.45320611694,5.53298811363
1471539673954256905,-0.391955108757,-0.277856491478,0.783355504544,0.394361656813,0.208282523497,0.078773518502,0.106048610865,-4.02830170989,-7.43850236109,5.43219232826
1471539673962546000,-0.391955108757,-0.277856491478,0.783355504544,0.394361656813,0.208282523497,0.078773518502,0.106048610865,-4.02830170989,-7.43850236109,5.43219232826
1471539673964056446,-0.391819997375,-0.276897613655,0.783679616134,0.394526374866,0.191879306976,0.0377655097229,0.0701904423132,-3.99520872944,-7.41242660286,5.31041210332
1471539673969524615,-0.391819997375,-0.276897613655,0.783679616134,0.394526374866,0.191879306976,0.0377655097229,0.0701904423132,-3.99520872944,-7.41242660286,5.31041210332
1471539673971253352,-0.391819997375,-0.276897613655,0.783679616134,0.394526374866,0.191879306976,0.0377655097229,0.0701904423132,-3.99520872944,-7.41242660286,5.31041210332
1471539673985682360,-0.390869757953,-0.275725456163,0.784255311296,0.39514543126,0.165367148988,-0.0667572112408,-0.0297546427245,-3.90504608927,-7.28615550549,5.22020977059
1471539673987137714,-0.390869757953,-0.275725456163,0.784255311296,0.39514543126,0.165367148988,-0.0667572112408,-0.0297546427245,-3.90504608927,-7.28615550549,5.22020977059
1471539673992078577,-0.390869757953,-0.275725456163,0.784255311296,0.39514543126,0.165367148988,-0.0667572112408,-0.0297546427245,-3.90504608927,-7.28615550549,5.22020977059
1471539673992604629,-0.390869757953,-0.275725456163,0.784255311296,0.39514543126,0.165367148988,-0.0667572112408,-0.0297546427245,-3.90504608927,-7.28615550549,5.22020977059
1471539674008041950,-0.388842673083,-0.275139752751,0.78499371135,0.396086310273,0.194931082611,-0.14266971604,-0.0780105800274,-3.44790824725,-7.30186259034,5.24525393414
1471539674011524245,-0.388842673083,-0.275139752751,0.78499371135,0.396086310273,0.194931082611,-0.14266971604,-0.0780105800274,-3.44790824725,-7.30186259034,5.24525393414
1471539674013145566,-0.38793643838,-0.274812557029,0.785288578025,0.396617230463,0.180816689232,-0.110435509563,-0.0816345390205,-3.36938560444,-7.20485316745,5.28791950955
1471539674014725804,-0.38793643838,-0.274812557029,0.785288578025,0.396617230463,0.180816689232,-0.110435509563,-0.0816345390205,-3.36938560444,-7.20485316745,5.28791950955
1471539674022544909,-0.387421203751,-0.274271443238,0.785456492572,0.397162541769,0.177574183694,-0.0213623078128,-0.0558853231175,-3.41594930002,-7.2773381826,5.22390391057
1471539674024020743,-0.387421203751,-0.274271443238,0.785456492572,0.397162541769,0.177574183694,-0.0213623078128,-0.0558853231175,-3.41594930002,-7.2773381826,5.22390391057
1471539674029034532,-0.387421203751,-0.274271443238,0.785456492572,0.397162541769,0.177574183694,-0.0213623078128,-0.0558853231175,-3.41594930002,-7.2773381826,5.22390391057
1471539674030253604,-0.387421203751,-0.274271443238,0.785456492572,0.397162541769,0.177574183694,-0.0213623078128,-0.0558853231175,-3.41594930002,-7.2773381826,5.22390391057
1471539674045532072,-0.387597044522,-0.273486328269,0.785143470015,0.398150085798,0.0148773208034,0.145339980157,-0.0482559251701,-3.34405029542,-7.08659926403,5.22671282557
1471539674049077718,-0.387597044522,-0.273486328269,0.785143470015,0.398150085798,0.0148773208034,0.145339980157,-0.0482559251701,-3.34405029542,-7.08659926403,5.22671282557
1471539674050194796,-0.387597044522,-0.273486328269,0.785143470015,0.398150085798,0.0148773208034,0.145339980157,-0.0482559251701,-3.34405029542,-7.08659926403,5.22671282557
1471539674051141326,-0.387597044522,-0.273486328269,0.785143470015,0.398150085798,0.0148773208034,0.145339980157,-0.0482559251701,-3.34405029542,-7.08659926403,5.22671282557
1471539674068006244,-0.388501519302,-0.272578165349,0.784384273545,0.399385809324,0.0658035383963,0.165939357695,-0.0816345345902,-3.76619046537,-7.84771804968,5.16722826318
1471539674069496136,-0.388501519302,-0.272578165349,0.784384273545,0.399385809324,0.0658035383963,0.165939357695,-0.0816345345902,-3.76619046537,-7.84771804968,5.16722826318
1471539674073147029,-0.388859752776,-0.2718660731,0.784120971082,0.400039040191,0.119781516568,0.168800385609,-0.0457763757585,-3.98839662583,-8.46922878397,5.61694300068
1471539674074655647,-0.388859752776,-0.2718660731,0.784120971082,0.400039040191,0.119781516568,0.168800385609,-0.0457763757585,-3.98839662583,-8.46922878397,5.61694300068
1471539674083013562,-0.389108644819,-0.270807589428,0.784003337035,0.400744905836,0.194931085228,0.17089848568,-0.02136231071,-4.02503894281,-8.49891895662,5.3731774658
1471539674085224375,-0.389108644819,-0.270807589428,0.784003337035,0.400744905836,0.194931085228,0.17089848568,-0.02136231071,-4.02503894281,-8.49891895662,5.3731774658
1471539674088990752,-0.389108644819,-0.270807589428,0.784003337035,0.400744905836,0.194931085228,0.17089848568,-0.02136231071,-4.02503894281,-8.49891895662,5.3731774658
1471539674090514689,-0.389108644819,-0.270807589428,0.784003337035,0.400744905836,0.194931085228,0.17089848568,-0.02136231071,-4.02503894281,-8.49891895662,5.3731774658
1471539674105559461,-0.389162329466,-0.267975886025,0.784379312357,0.401859055118,0.302505636611,0.135231082192,0.0633240046374,-4.04966089967,-8.59471127636,5.3971033054
1471539674107021150,-0.389162329466,-0.267975886025,0.784379312357,0.401859055118,0.302505636611,0.135231082192,0.0633240046374,-4.04966089967,-8.59471127636,5.3971033054
1471539674110241848,-0.389162329466,-0.267975886025,0.784379312357,0.401859055118,0.302505636611,0.135231082192,0.0633240046374,-4.04966089967,-8.59471127636,5.3971033054
1471539674113852485,-0.389162329466,-0.267975886025,0.784379312357,0.401859055118,0.302505636611,0.135231082192,0.0633240046374,-4.04966089967,-8.59471127636,5.3971033054
1471539674128212972,-0.389249235385,-0.263657031662,0.785300665214,0.40283106586,0.431251962562,0.190544321362,0.144004967596,-4.0687835036,-8.00709173375,5.09039624769
1471539674129568012,-0.389249235385,-0.263657031662,0.785300665214,0.40283106586,0.431251962562,0.190544321362,0.144004967596,-4.0687835036,-8.00709173375,5.09039624769
1471539674133930647,-0.389337288305,-0.261267760543,0.785780030174,0.403367546309,0.435829617676,0.196838584438,0.148010408454,-4.11806503587,-7.29180443749,5.08388575643
1471539674134915377,-0.389337288305,-0.261267760543,0.785780030174,0.403367546309,0.435829617676,0.196838584438,0.148010408454,-4.11806503587,-7.29180443749,5.08388575643
1471539674141789558,-0.389337288305,-0.261267760543,0.785780030174,0.403367546309,0.435829617676,0.196838584438,0.148010408454,-4.11806503587,-7.29180443749,5.08388575643
1471539674143317066,-0.3896486365,-0.259359924563,0.786068942375,0.403735046085,0.319099638007,0.199127329396,0.1333237579,-3.99684229866,-6.89566527483,4.95479789867
1471539674150346595,-0.3896486365,-0.259359924563,0.786068942375,0.403735046085,0.319099638007,0.199127329396,0.1333237579,-3.99684229866,-6.89566527483,4.95479789867
1471539674152953675,-0.3896486365,-0.259359924563,0.786068942375,0.403735046085,0.319099638007,0.199127329396,0.1333237579,-3.99684229866,-6.89566527483,4.95479789867
1471539674164880568,-0.393183643863,-0.253801857168,0.785482873314,0.404978882446,0.449563744812,0.801661611984,0.218773701867,-3.57979112647,-9.8725544698,6.96321766963
1471539674166351010,-0.393183643863,-0.253801857168,0.785482873314,0.404978882446,0.449563744812,0.801661611984,0.218773701867,-3.57979112647,-9.8725544698,6.96321766963
1471539674169549569,-0.393183643863,-0.253801857168,0.785482873314,0.404978882446,0.449563744812,0.801661611984,0.218773701867,-3.57979112647,-9.8725544698,6.96321766963
1471539674171090387,-0.393183643863,-0.253801857168,0.785482873314,0.404978882446,0.449563744812,0.801661611984,0.218773701867,-3.57979112647,-9.8725544698,6.96321766963
1471539674187632056,-0.394313589892,-0.24838107242,0.785936386915,0.406358993273,0.446322026562,0.325109356528,0.154877557935,-4.96340840863,-7.34354847245,6.27291773258
1471539674188676190,-0.394313589892,-0.24838107242,0.785936386915,0.406358993273,0.446322026562,0.325109356528,0.154877557935,-4.96340840863,-7.34354847245,6.27291773258
1471539674192784489,-0.394086747396,-0.246420458939,0.786090886806,0.407472343385,0.422668820935,0.166511679005,-0.0160217423098,-4.19144417222,-8.14172389662,6.11725244926
1471539674194275831,-0.394086747396,-0.246420458939,0.786090886806,0.407472343385,0.422668820935,0.166511679005,-0.0160217423098,-4.19144417222,-8.14172389662,6.11725244926
1471539674202134428,-0.393544884975,-0.244767315906,0.786315092612,0.408558392039,0.401306437236,0.0850678094141,-0.0457763996847,-4.22026089377,-7.78499313388,5.69163535413
1471539674203626931,-0.393544884975,-0.244767315906,0.786315092612,0.408558392039,0.401306437236,0.0850678094141,-0.0457763996847,-4.22026089377,-7.78499313388,5.69163535413
1471539674212195209,-0.393544884975,-0.244767315906,0.786315092612,0.408558392039,0.401306437236,0.0850678094141,-0.0457763996847,-4.22026089377,-7.78499313388,5.69163535413
1471539674215351657,-0.393053804822,-0.242929007873,0.786569104118,0.409637947578,0.427246439639,0.105476464786,-0.0251770223359,-3.74938900422,-7.66736678119,5.31226958859
1471539674225018931,-0.39290479144,-0.240641937955,0.786827329506,0.410633700642,0.46348620672,0.191688739816,0.0402450986082,-3.77007540165,-7.14940065299,5.28250648531
1471539674229871917,-0.39290479144,-0.240641937955,0.786827329506,0.410633700642,0.46348620672,0.191688739816,0.0402450986082,-3.77007540165,-7.14940065299,5.28250648531
1471539674232363825,-0.39290479144,-0.240641937955,0.786827329506,0.410633700642,0.46348620672,0.191688739816,0.0402450986082,-3.77007540165,-7.14940065299,5.28250648531
1471539674233985129,-0.393025411684,-0.23806811147,0.787059077779,0.411573332661,0.480843199611,0.25711092149,0.082397565344,-3.65345718646,-7.02320672344,5.26734650289
1471539674247657724,-0.393237213917,-0.235448238029,0.787228892312,0.412552168712,0.480652489857,0.281906500003,0.0791550727344,-4.28653101272,-7.00134840772,5.99064443392
1471539674252488803,-0.393237213917,-0.235448238029,0.787228892312,0.412552168712,0.480652489857,0.281906500003,0.0791550727344,-4.28653101272,-7.00134840772,5.99064443392
1471539674253605930,-0.393057696326,-0.232862703535,0.787582208493,0.413515263957,0.514984800056,0.202369952911,0.0755311040082,-4.93462810768,-7.26959982023,6.2759696358
1471539674256010928,-0.393057696326,-0.232862703535,0.787582208493,0.413515263957,0.514984800056,0.202369952911,0.0755311040082,-4.93462810768,-7.26959982023,6.2759696358
1471539674270201758,-0.392489310361,-0.230523055944,0.788163735591,0.41425739321,0.501633251862,0.0925065122255,0.0917435719185,-5.36039291732,-7.49206016439,6.752052721
1471539674271272398,-0.392489310361,-0.230523055944,0.788163735591,0.41425739321,0.501633251862,0.0925065122255,0.0917435719185,-5.36039291732,-7.49206016439,6.752052721
1471539674272695791,-0.392489310361,-0.230523055944,0.788163735591,0.41425739321,0.501633251862,0.0925065122255,0.0917435719185,-5.36039291732,-7.49206016439,6.752052721
1471539674275493128,-0.391342662083,-0.228248620527,0.788897724308,0.415203406347,0.562287121623,-0.00667572905591,0.0404358445672,-5.38462825437,-7.61030247643,6.41809575557
1471539674285168687,-0.389722329684,-0.226213647456,0.789711932694,0.416291910575,0.578690407912,-0.101089623004,-0.0158310164327,-5.39445652117,-7.28964825096,6.04678309215
1471539674289511207,-0.389722329684,-0.226213647456,0.789711932694,0.416291910575,0.578690407912,-0.101089623004,-0.0158310164327,-5.39445652117,-7.28964825096,6.04678309215
1471539674292040741,-0.388123262739,-0.224572541605,0.79032990121,0.417499884708,0.515175475381,-0.109863411262,-0.0808716777347,-5.3653447412,-6.64676670006,5.5803942839
1471539674294496048,-0.388123262739,-0.224572541605,0.79032990121,0.417499884708,0.515175475381,-0.109863411262,-0.0808716777347,-5.3653447412,-6.64676670006,5.5803942839
1471539674307615227,-0.386631374646,-0.223436087189,0.790693013976,0.418804313171,0.422478098633,-0.111007789347,-0.151825086461,-5.10200992118,-6.1072800551,5.66197580407
1471539674319823211,-0.385175079821,-0.222880005415,0.790721636154,0.420385484036,0.334167753897,-0.115776156744,-0.267029027087,-5.61532740433,-6.37529258444,6.22728948942
1471539674320875565,-0.385175079821,-0.222880005415,0.790721636154,0.420385484036,0.334167753897,-0.115776156744,-0.267029027087,-5.61532740433,-6.37529258444,6.22728948942
1471539674323378169,-0.383225409845,-0.222563300407,0.790901469533,0.421993753569,0.346565621956,-0.224495177239,-0.299072589558,-6.02201867947,-7.1202121678,6.71495702309
1471539674330043924,-0.383225409845,-0.222563300407,0.790901469533,0.421993753569,0.346565621956,-0.224495177239,-0.299072589558,-6.02201867947,-7.1202121678,6.71495702309
1471539674331669805,-0.383225409845,-0.222563300407,0.790901469533,0.421993753569,0.346565621956,-0.224495177239,-0.299072589558,-6.02201867947,-7.1202121678,6.71495702309
1471539674333015357,-0.383225409845,-0.222563300407,0.790901469533,0.421993753569,0.346565621956,-0.224495177239,-0.299072589558,-6.02201867947,-7.1202121678,6.71495702309
1471539674335832574,-0.380773876304,-0.222336408111,0.791230173234,0.423712862346,0.38986265224,-0.31795549965,-0.333405047024,-6.07459005431,-7.26631224211,6.74992386224
1471539674345165497,-0.377810991107,-0.222217793789,0.791705407396,0.42553572708,0.430489470822,-0.414658444646,-0.368500512905,-5.88160160383,-6.9686339402,6.3781327017
1471539674357337364,-0.374685766612,-0.222057974093,0.79231049262,0.42725275391,0.448609377895,-0.451470407091,-0.344849385729,-5.57708663961,-7.01493630156,6.15019567128
1471539674358016396,-0.374685766612,-0.222057974093,0.79231049262,0.42725275391,0.448609377895,-0.451470407091,-0.344849385729,-5.57708663961,-7.01493630156,6.15019567128
1471539674360356407,-0.374685766612,-0.222057974093,0.79231049262,0.42725275391,0.448609377895,-0.451470407091,-0.344849385729,-5.57708663961,-7.01493630156,6.15019567128
1471539674367577086,-0.371414312652,-0.221696894487,0.793051230177,0.42891915514,0.495339608994,-0.469781076993,-0.316811355617,-5.04226383221,-7.25224554998,6.17056693746
1471539674372360367,-0.371414312652,-0.221696894487,0.793051230177,0.42891915514,0.495339608994,-0.469781076993,-0.316811355617,-5.04226383221,-7.25224554998,6.17056693746
